,City,Cloudiness,Country,Date,Humidity,Lat,Lng,Max Temp,Wind Speed
0,Qaanaaq,0,GL,1551300806,81,77.48,-69.36,-28.46,1.06
1,Swan River,56,CA,1551300807,78,52.11,-101.27,-8.93,6.11
2,Vaini,0,IN,1551300807,79,15.34,74.49,13.45,0.86
3,Barrow,80,AR,1551300807,75,-38.31,-60.23,16.47,6.41
4,Provideniya,92,RU,1551300808,92,64.42,-173.23,-0.56,15.21
5,Hamilton,75,BM,1551300351,48,32.3,-64.78,18.0,1.5
6,Vedeno,90,RU,1551297600,93,42.97,46.1,3.0,4.0
7,Rikitea,64,PF,1551300720,100,-23.12,-134.97,26.6,4.36
8,Avarua,0,CK,1551299400,74,-21.21,-159.78,28.0,5.1
9,Barcelona,0,ES,1551300254,93,41.38,2.18,15.0,3.6
10,Takoradi,76,GH,1551300809,95,4.89,-1.75,28.7,3.86
11,Albany,90,US,1551300619,48,42.65,-73.75,-7.78,1.46
12,Hilo,90,US,1551300683,73,19.71,-155.08,21.67,4.6
13,Hithadhoo,24,MV,1551300646,100,-0.6,73.08,27.52,4.01
14,Vestmannaeyjar,48,IS,1551300810,93,63.44,-20.27,4.57,5.21
15,Kodiak,20,US,1551300725,67,39.95,-94.76,-5.0,7.7
16,Port Blair,0,IN,1551300716,100,11.67,92.75,28.2,3.91
17,Jingdezhen,24,CN,1551300814,96,29.29,117.2,3.22,1.41
18,Punta Arenas,75,CL,1551300193,66,-53.16,-70.91,12.0,12.9
19,Lompoc,90,US,1551300699,76,34.64,-120.46,15.56,5.7
20,Castro,0,CL,1551297600,67,-42.48,-73.76,17.0,3.1
21,Ushuaia,75,AR,1551297600,87,-54.81,-68.31,10.0,12.9
22,Trairi,68,BR,1551300815,100,-3.28,-39.27,26.45,2.01
23,Puerto Ayora,75,EC,1551297600,70,-0.74,-90.35,30.0,3.6
24,Cape Town,20,ZA,1551300754,68,-33.93,18.42,19.44,3.1
25,Webster Groves,90,US,1551300631,80,38.59,-90.36,5.56,5.1
26,Nouadhibou,0,MR,1551297600,43,20.93,-17.03,23.0,4.6
27,Mar del Plata,0,AR,1551300710,32,-46.43,-67.52,23.67,0.26
28,Ponta do Sol,36,BR,1551300817,88,-20.63,-46.0,24.05,1.31
29,Hermanus,8,ZA,1551300463,78,-34.42,19.24,18.33,4.02
30,Beringovskiy,88,RU,1551300817,95,63.05,179.32,-2.41,3.41
31,Meulaboh,36,ID,1551300818,100,4.14,96.13,26.37,1.56
32,Hobart,0,AU,1551300674,82,-42.88,147.33,13.33,2.6
33,Udachnyy,64,RU,1551300818,70,66.42,112.4,-13.48,1.86
34,Victoria,75,BN,1551299400,94,5.28,115.24,24.0,3.11
35,Port Elizabeth,90,US,1551300802,69,39.31,-74.98,3.89,5.1
36,Sehithwa,20,BW,1551300819,49,-20.47,22.7,26.3,2.91
37,Maymyo,0,MM,1551300820,87,22.03,96.47,12.95,0.76
38,Saldanha,0,PT,1551300820,83,41.42,-6.55,4.52,0.76
39,Diu,0,IN,1551300820,33,20.71,70.98,16.92,3.66
40,Carnarvon,24,ZA,1551300820,27,-30.97,22.13,16.8,4.31
41,Khatanga,64,RU,1551300821,66,71.98,102.47,-22.98,3.91
42,Busselton,0,AU,1551300607,45,-33.64,115.35,19.44,6.26
43,Atuona,32,PF,1551300767,100,-9.8,-139.03,27.05,2.31
44,Majene,36,ID,1551300822,99,-3.54,118.97,27.7,0.26
45,Roald,75,NO,1551300603,80,62.58,6.12,5.0,7.2
46,Portland,90,US,1551300624,64,45.52,-122.67,2.22,8.7
47,Nikolskoye,75,RU,1551300645,80,59.7,30.79,2.22,5.0
48,Airai,56,TL,1551300763,93,-8.93,125.41,21.1,0.71
49,Cervo,40,BR,1551297600,94,-22.19,-46.24,23.0,1.0
50,Ormara,12,PK,1551300824,87,25.21,64.64,19.8,3.91
51,Mataura,88,NZ,1551300608,74,-46.19,168.86,11.11,4.02
52,Risod,0,IN,1551300824,32,19.98,76.79,18.57,5.06
53,Norman Wells,75,CA,1551297600,67,65.28,-126.83,-6.0,3.1
54,Bredasdorp,48,ZA,1551300463,59,-34.53,20.04,18.33,7.7
55,Ostrovnoy,88,RU,1551300825,88,68.05,39.51,-6.78,5.56
56,Carutapera,92,BR,1551300829,88,-1.2,-46.02,25.95,3.16
57,Sinnamary,92,GF,1551300829,89,5.38,-52.96,26.97,5.91
58,Sao Joao da Barra,75,BR,1551297600,66,-21.64,-41.05,30.0,7.2
59,Vila Franca do Campo,75,PT,1551300673,100,37.72,-25.43,16.0,6.2
60,Brooks,0,CA,1551300830,82,50.57,-111.89,-8.23,3.56
61,Saint George,40,GR,1551297000,80,39.45,22.34,5.0,0.96
62,Jamestown,0,AU,1551300552,66,-33.21,138.6,18.2,3.91
63,Leningradskiy,0,RU,1551300831,80,69.38,178.42,-9.38,6.51
64,Bluff,44,AU,1551300831,62,-23.58,149.07,20.57,5.51
65,North Bend,90,US,1551300817,65,43.41,-124.22,7.22,5.7
66,Butaritari,64,KI,1551300832,100,3.07,172.79,27.27,7.16
67,Pakruojis,24,LT,1551298800,93,55.98,23.85,2.0,6.7
68,Sudak,64,UA,1551300853,100,44.85,34.97,0.02,3.01
69,Longido,8,TZ,1551300854,65,-2.73,36.7,19.07,3.11
70,Alken,0,BE,1551300844,58,50.88,5.31,12.0,2.6
71,Victoriaville,75,CA,1551300609,65,46.06,-71.95,-13.33,7.2
72,Puri,40,ID,1551297600,100,-7.54,112.45,26.0,2.1
73,Sola,0,FI,1551300726,96,62.78,29.36,1.67,3.1
74,Geraldton,75,CA,1551297600,51,49.72,-86.95,-11.0,4.6
75,Adre,24,TD,1551300856,29,13.47,22.2,26.12,4.86
76,Vardo,90,US,1551300754,64,39.62,-77.74,7.78,4.1
77,Fukue,75,JP,1551300837,81,35.03,136.69,12.22,6.2
78,Carndonagh,32,IE,1551298800,93,55.25,-7.27,6.0,3.1
79,Talara,0,PE,1551297600,290,-4.58,-81.27,17.0,4.6
80,Kapaa,90,US,1551300498,56,22.08,-159.32,22.78,10.8
81,Kichmengskiy Gorodok,68,RU,1551300858,74,59.99,45.81,-13.81,3.11
82,Fortuna,0,ES,1551300757,71,38.18,-1.13,13.89,1.5
83,Ilulissat,5,GL,1551297000,45,69.22,-51.1,-3.0,7.7
84,New Norfolk,0,AU,1551300734,82,-42.78,147.06,13.33,2.6
85,Eregli,88,TR,1551300859,93,37.51,34.05,-1.43,2.01
86,Sovetskiy,88,RU,1551300860,92,56.76,48.47,-3.83,3.61
87,Saskylakh,64,RU,1551300860,82,71.97,114.09,-28.58,1.41
88,Urucara,80,BR,1551300587,76,-2.54,-57.76,28.05,1.26
89,Muros,0,ES,1551300751,93,42.77,-9.06,12.78,3.1
90,Bireun,0,ID,1551300860,100,5.2,96.7,27.35,3.31
91,Thompson,90,CA,1551300420,72,55.74,-97.86,-10.0,3.6
92,Charters Towers,8,AU,1551300861,85,-20.07,146.27,19.42,2.66
93,Guerrero Negro,24,MX,1551300767,59,27.97,-114.04,18.67,5.91
94,Inhambane,20,MZ,1551300861,96,-23.87,35.38,26.45,3.41
95,Kysyl-Syr,48,RU,1551300862,81,63.9,122.77,-19.03,1.26
96,Ancud,0,CL,1551297600,67,-41.87,-73.83,17.0,3.1
97,Sinop,88,TR,1551300863,100,42.03,35.15,4.8,5.16
98,Maceio,40,BR,1551297600,70,-9.67,-35.74,29.0,7.7
99,Dikson,56,RU,1551300762,91,73.51,80.55,-17.43,15.61
100,San Felipe,0,CL,1551300849,20,-32.75,-70.73,31.67,1.34
101,Lorengau,92,PG,1551300786,100,-2.02,147.27,25.95,2.36
102,Poykovskiy,0,RU,1551297600,83,61.23,73.33,-21.0,3.0
103,Batagay-Alyta,0,RU,1551300868,47,67.8,130.41,-35.13,1.66
104,Georgetown,75,GY,1551297600,78,6.8,-58.16,27.0,7.2
105,Palmerston,90,CA,1551300672,85,43.83,-80.85,-7.22,6.7
106,Darnah,88,LY,1551300869,100,32.77,22.64,13.3,6.21
107,Tuktoyaktuk,20,CA,1551297600,77,69.44,-133.03,-19.0,6.2
108,Chokurdakh,80,RU,1551300759,70,70.62,147.9,-23.58,5.71
109,Evanston,36,US,1551300698,63,42.04,-87.69,0.0,4.1
110,Upernavik,0,GL,1551300870,100,72.79,-56.15,-14.83,9.96
111,Bhatkal,0,IN,1551300870,100,13.97,74.57,26.47,6.51
112,Margate,0,AU,1551300854,82,-43.03,147.26,13.33,2.6
113,Coihaique,0,CL,1551297600,45,-45.58,-72.07,20.0,1.0
114,Port Alfred,32,ZA,1551300680,83,-33.59,26.89,17.22,1.34
115,Banfora,0,BF,1551300871,25,10.64,-4.75,24.1,4.91
116,Wangqing,0,CN,1551300872,73,43.31,129.76,-9.53,1.36
117,Flin Flon,90,CA,1551297600,79,54.77,-101.88,-6.0,5.1
118,Te Anau,64,NZ,1551300872,95,-45.41,167.72,6.05,1.56
119,Lagoa,0,PT,1551300730,87,37.14,-8.45,15.0,2.6
120,Yellowknife,20,CA,1551300431,55,62.45,-114.38,-12.0,5.7
121,Paamiut,76,GL,1551300873,77,61.99,-49.67,1.82,4.91
122,Ribeira Grande,40,PT,1551297600,93,38.52,-28.7,16.0,4.6
123,Arraial do Cabo,20,BR,1551297600,70,-22.97,-42.02,31.0,4.6
124,Surgut,0,RU,1551297600,83,61.25,73.4,-21.0,3.0
125,Mamit,92,IN,1551300874,98,23.92,92.49,17.07,0.96
126,Inyonga,48,TZ,1551300875,95,-6.72,32.06,18.02,0.81
127,Eydhafushi,24,MV,1551300875,100,5.1,73.07,27.2,1.96
128,Hervey Bay,40,AU,1551300308,72,-25.3,152.85,22.78,3.6
129,Atikokan,0,CA,1551300876,57,48.76,-91.62,-11.96,3.46
130,Oranjemund,0,ZA,1551300876,93,-28.55,16.43,17.7,10.76
131,Laguna de Duero,0,ES,1551300633,76,41.58,-4.72,11.67,1.5
132,Sonamura,92,IN,1551300877,96,23.47,91.27,17.97,2.01
133,Menongue,80,AO,1551300836,60,-14.66,17.68,20.8,1.11
134,Ponnani,40,IN,1551299400,74,10.77,75.93,26.0,2.1
135,Galesong,20,ID,1551297600,100,-5.32,119.37,24.0,0.5
136,Glendive,1,US,1551298500,60,47.11,-104.71,-13.0,5.1
137,Mega,0,ET,1551300878,28,4.06,38.32,19.8,4.01
138,Gueret,0,FR,1551300620,33,46.17,1.87,15.0,2.1
139,Middelkerke,0,BE,1551300841,93,51.19,2.82,10.0,1.0
140,Iqaluit,5,CA,1551300768,70,63.75,-68.52,-18.89,7.7
141,Champerico,20,MX,1551296700,22,16.38,-93.6,32.0,0.81
142,Boralday,75,KZ,1551299400,86,43.36,76.86,-3.0,3.0
143,Port Shepstone,76,ZA,1551300880,91,-30.74,30.45,21.8,1.61
144,Nishihara,75,JP,1551300839,61,35.74,139.53,8.89,5.7
145,Kahului,40,US,1551300664,53,20.89,-156.47,24.0,6.2
146,Brenham,90,US,1551300871,94,30.17,-96.4,25.0,2.6
147,Bethel,1,US,1551297360,86,60.79,-161.76,2.0,9.8
148,Faanui,88,PF,1551300882,100,-16.48,-151.75,28.45,4.81
149,Honningsvag,90,NO,1551298800,92,70.98,25.97,-5.0,12.3
150,Wanaka,32,NZ,1551300883,52,-44.7,169.14,7.72,0.86
151,Luderitz,0,NA,1551300844,70,-26.65,15.16,17.82,8.81
152,Saint-Philippe,90,CA,1551300826,38,45.36,-73.48,-11.67,2.31
153,Gat,0,SN,1551299400,46,14.69,-16.54,21.0,6.7
154,Englewood,75,US,1551300623,100,39.65,-104.99,9.44,3.1
155,Longyearbyen,75,NO,1551297000,59,78.22,15.63,-16.0,1.5
156,Tasiilaq,80,GL,1551297000,96,65.61,-37.64,0.0,7.7
157,Petrivka,68,UA,1551300885,96,48.39,37.78,-2.48,2.26
158,Visnes,75,NO,1551300715,100,59.36,5.22,5.56,5.7
159,Kholtoson,0,RU,1551300885,49,50.3,103.31,-21.46,1.16
160,Songjianghe,36,CN,1551300885,79,42.18,127.48,-5.88,2.01
161,Permet,0,AL,1551300886,81,40.23,20.35,-7.71,0.76
162,Gbarnga,20,LR,1551300886,42,7.0,-9.47,29.3,2.21
163,Mikhaylovka,20,RU,1551300887,65,52.96,103.29,-13.83,1.61
164,Yar-Sale,56,RU,1551300887,81,66.83,70.83,-15.91,10.76
165,Quzhou,92,CN,1551300887,100,28.97,118.86,6.87,1.61
166,Tacoma,75,US,1551300881,55,47.25,-122.44,7.22,3.1
167,Ihosy,56,MG,1551300888,97,-22.4,46.13,18.85,1.06
168,Storforshei,75,NO,1551300823,86,66.4,14.52,3.0,6.7
169,Gloversville,90,US,1551300625,61,43.05,-74.34,-10.57,2.6
170,Marrakesh,0,MA,1551299400,63,31.63,-7.99,18.0,4.6
171,Lata,56,IN,1551300889,100,30.78,78.62,-4.28,0.86
172,Talnakh,0,RU,1551300889,43,69.49,88.39,-33.43,1.96
173,Port Lincoln,8,AU,1551300857,100,-34.72,135.86,16.87,2.96
174,Kaitangata,64,NZ,1551300741,77,-46.28,169.85,11.11,4.47
175,Karratha,0,AU,1551300890,93,-20.74,116.85,25.37,2.41
176,Nanortalik,8,GL,1551300890,89,60.14,-45.24,1.82,24.26
177,East London,0,ZA,1551300867,100,-33.02,27.91,21.55,6.91
178,Prado,32,BR,1551300891,97,-17.34,-39.22,28.3,7.61
179,Cherskiy,88,RU,1551300868,80,68.75,161.3,-18.88,3.16
180,Husavik,0,CA,1551300852,73,50.56,-96.99,-11.67,2.24
181,Camenca,56,MD,1551300325,86,47.82,27.37,1.11,0.89
182,Poum,0,MK,1551300892,82,41.28,20.71,-6.78,0.76
183,Pisco,0,PE,1551297600,30,-13.71,-76.2,22.0,4.6
184,Taksimo,56,RU,1551300892,66,56.36,114.84,-13.53,1.01
185,Boa Vista,0,BR,1551300680,33,2.82,-60.67,34.37,6.01
186,Manzhouli,0,CN,1551300894,63,49.6,117.43,-13.63,2.71
187,Kavaratti,0,IN,1551300894,100,10.57,72.64,28.02,5.06
188,Dingle,0,PH,1551300847,80,11.0,122.67,22.1,5.26
189,Jumla,64,NP,1551300894,92,29.28,82.18,-9.38,0.81
190,Kaeo,24,NZ,1551300180,100,-35.1,173.78,17.78,5.71
191,Saint-Augustin,0,FR,1551300847,50,44.83,-0.61,13.33,3.6
192,Chihuahua,75,MX,1551300844,17,28.66,-106.08,24.44,1.81
193,Itaquyry,8,PY,1551300896,77,-24.93,-55.22,25.85,1.46
194,Pangai,48,TO,1551297600,89,-19.8,-174.35,29.0,6.2
195,Praia,75,BR,1551297600,45,-20.25,-43.81,31.0,3.1
196,Shubarshi,48,KZ,1551300897,68,48.59,57.19,-9.33,1.46
197,Olean,90,US,1551300612,79,42.08,-78.43,0.56,2.6
198,Saint-Pierre,0,FR,1551300725,65,48.95,4.24,8.0,3.1
199,Kalispell,75,US,1551300843,44,48.2,-114.32,-6.67,1.31
200,Vallenar,12,CL,1551300898,63,-28.58,-70.76,23.02,1.21
201,Hambantota,80,LK,1551300897,100,6.12,81.12,24.55,2.41
202,Tymovskoye,76,RU,1551300899,74,50.85,142.66,-11.56,1.06
203,Natal,40,BR,1551297600,66,-5.81,-35.21,30.0,5.7
204,Zhezkazgan,88,KZ,1551300900,94,47.8,67.71,-2.21,2.36
205,Bitung,20,ID,1551299400,94,1.44,125.19,21.0,1.0
206,Okato,24,NZ,1551300104,56,-39.19,173.88,17.22,4.02
207,Salekhard,56,RU,1551300900,73,66.54,66.62,-14.71,7.61
208,Tankara,0,IN,1551300600,22,22.66,70.75,22.78,3.91
209,Beaucaire,0,FR,1551300732,87,43.81,4.64,11.67,3.1
210,Krasnogvardeyskoye,88,RU,1551300901,95,45.84,41.51,0.2,1.76
211,Ust-Kuyga,12,RU,1551300902,69,70.0,135.55,-38.18,1.41
212,Belmonte,8,PT,1551300351,83,40.36,-7.35,10.56,1.11
213,College,1,US,1551300657,83,64.86,-147.8,-6.11,1.51
214,Khandagayty,0,MN,1551300902,58,50.73,92.07,-23.53,1.36
215,Barcelos,0,PT,1551300424,93,41.53,-8.62,12.78,0.96
216,Severo-Kurilsk,56,RU,1551300890,100,50.68,156.12,-3.83,10.76
217,Lebu,0,ET,1551297600,29,8.96,38.73,19.0,4.1
218,Bambous Virieux,75,MU,1551300841,83,-20.34,57.76,27.22,1.5
219,Seoul,1,KR,1551297480,92,37.57,126.98,1.0,1.06
220,Samoylovka,92,RU,1551299610,94,51.19,43.71,-0.57,0.45
221,Nauta,8,PE,1551300904,50,-4.51,-73.58,33.22,1.61
222,Mildura,0,AU,1551300356,35,-34.18,142.16,22.0,2.1
223,Souillac,0,FR,1551300847,41,45.6,-0.6,15.0,2.1
224,Carauari,44,BR,1551300908,75,-4.88,-66.9,28.42,2.46
225,Calmar,75,CA,1551300815,58,53.27,-113.81,-1.11,5.7
226,Basco,90,US,1551300810,73,40.33,-91.2,-2.78,5.7
227,Riacho de Santana,24,BR,1551300910,70,-13.61,-42.94,28.52,1.31
228,Bathsheba,40,BB,1551297600,62,13.22,-59.52,29.0,8.2
229,La Ronge,90,CA,1551299160,73,55.1,-105.3,-7.0,5.7
230,Cayenne,92,GF,1551299400,61,4.94,-52.33,28.0,4.6
231,Rawson,0,AR,1551300911,28,-43.3,-65.11,24.37,4.31
232,Cabo San Lucas,75,MX,1551300603,57,22.89,-109.91,28.0,5.1
233,Nabire,92,ID,1551300912,97,-3.36,135.5,20.67,0.51
234,Haines Junction,0,CA,1551300885,83,60.75,-137.51,-11.21,0.51
235,Kastamonu,64,TR,1551300912,88,41.38,33.78,-3.33,1.96
236,Bukachacha,0,RU,1551300914,66,52.99,116.91,-15.78,1.71
237,Westport,20,IE,1551300608,90,53.8,-9.52,7.78,2.68
238,Arawa,36,NG,1551300914,89,7.05,3.9,25.12,1.96
239,Kruisfontein,44,ZA,1551300914,78,-34.0,24.73,16.95,6.11
240,Tawang,92,BT,1551300915,76,27.59,91.87,-1.66,0.61
241,Aden,0,YE,1551300690,95,12.79,45.03,26.07,5.26
242,Anchorage,75,US,1551300865,85,61.22,-149.89,-3.33,1.31
243,Puerto del Rosario,20,ES,1551299400,77,28.5,-13.86,18.0,7.2
244,Sassandra,36,CI,1551300916,98,4.95,-6.09,27.52,4.51
245,Kyren,20,RU,1551300917,45,51.68,102.13,-20.56,0.86
246,Zhangye,0,CN,1551300890,71,38.94,100.46,-10.56,2.21
247,Gizo,75,IL,1551300916,87,31.8,34.94,15.0,4.1
248,Marawi,0,PH,1551300363,86,8.0,124.29,18.89,2.24
249,Daru,56,SL,1551300918,50,7.99,-10.85,28.52,1.31
250,Nioro,0,GM,1551300919,23,13.79,-15.05,23.32,4.91
251,Ambanja,64,MG,1551300919,96,-13.68,48.45,22.52,1.06
252,Lavrentiya,92,RU,1551300766,96,65.58,-170.99,-1.43,17.26
253,Bushehr,90,IR,1551297600,59,28.97,50.84,17.0,6.2
254,Pevek,8,RU,1551300770,69,69.7,170.27,-10.48,12.91
255,Hovd,75,NO,1551300902,80,63.83,10.7,5.56,14.9
256,Atasu,80,KZ,1551300920,89,48.68,71.64,-4.41,1.41
257,Mirabad,24,IR,1551300921,56,28.27,61.33,10.1,7.41
258,Saint-Francois,0,FR,1551299400,86,46.42,3.91,5.0,1.5
259,Vila Velha,40,BR,1551300502,78,-3.71,-38.6,27.22,3.1
260,Mehamn,40,NO,1551298800,79,71.03,27.85,-5.0,11.3
261,Sosua,20,DO,1551300658,62,19.77,-70.52,29.0,7.2
262,Ayorou,0,NE,1551300922,15,14.73,0.92,19.45,4.81
263,Obo,32,CF,1551300882,90,5.39,26.49,20.87,1.11
264,Tura,92,IN,1551300755,96,25.52,90.21,14.55,1.96
265,Ocampo,56,PH,1551300922,93,13.56,123.37,23.32,4.01
266,Ballina,0,IE,1551300608,99,54.11,-9.15,7.78,2.56
267,Kasamwa,24,TZ,1551300923,83,-2.84,32.42,18.17,1.96
268,Walvis Bay,0,NA,1551297730,68,-22.95,14.51,19.44,3.6
269,Sambava,92,MG,1551300923,100,-14.27,50.17,24.45,3.46
270,Puerto Madryn,0,AR,1551300924,61,-42.77,-65.04,20.55,2.46
271,Mao,40,DO,1551300658,61,19.55,-71.08,29.0,7.7
272,Port Keats,20,AU,1551300924,100,-14.25,129.55,24.7,3.96
273,Clyde River,5,CA,1551297600,75,70.47,-68.59,-27.0,2.6
274,Sangmelima,68,CM,1551300925,93,2.93,11.98,21.42,0.96
275,Kurayoshi,90,JP,1551300518,87,35.43,133.83,6.0,1.0
276,Komsomolskiy,12,RU,1551300926,47,67.55,63.78,-22.81,2.31
277,Athabasca,8,CA,1551300694,84,54.72,-113.29,-5.81,6.11
278,Nishiwaki,75,JP,1551300688,93,35.01,135.0,9.44,2.6
279,Oksfjord,0,NO,1551300608,63,70.24,22.35,-3.0,6.2
280,Biak,92,ID,1551300927,99,-0.91,122.88,25.62,1.11
281,Ouango,36,CD,1551300928,96,4.31,22.55,22.37,1.16
282,Sankt Polten,0,AT,1551300909,67,48.2,15.63,8.89,1.41
283,Grafenau,0,DE,1551300925,86,48.86,13.39,7.22,1.01
284,Wijchen,0,NL,1551300692,81,51.81,5.74,10.56,3.1
285,Prince Rupert,1,CA,1551297600,39,54.32,-130.32,9.0,2.6
286,Sept-Iles,75,CA,1551297600,46,50.2,-66.38,-12.0,8.2
287,Tiksi,0,RU,1551300769,33,71.64,128.87,-30.73,2.46
288,Lichuan,44,CN,1551300930,87,30.3,108.94,0.32,1.01
289,San Patricio,20,PY,1551300930,51,-26.98,-56.83,25.77,2.56
290,Ouesso,80,CG,1551300930,98,1.61,16.05,22.22,1.81
291,Grindavik,75,IS,1551299400,81,63.84,-22.43,6.0,8.2
292,Makhachkala,40,RU,1551297600,80,42.98,47.5,5.0,5.0
293,Lokosovo,68,RU,1551300934,83,61.13,74.84,-16.18,2.46
294,Phuthaditjhaba,12,ZA,1551300934,28,-28.53,28.82,12.92,2.01
295,Codrington,75,AU,1551300838,93,-28.95,153.24,23.0,3.6
296,Mahebourg,75,MU,1551300841,83,-20.41,57.7,27.22,1.5
297,Kolda,0,SN,1551300935,19,12.89,-14.94,25.35,4.81
298,Constitucion,20,MX,1551300616,10,23.99,-104.67,27.22,1.5
299,Chuy,0,UY,1551300848,72,-33.69,-53.46,21.87,2.91
300,Miandrivazo,92,MG,1551300936,98,-19.53,45.46,21.92,1.31
301,Bambanglipuro,12,ID,1551300867,100,-7.95,110.28,21.52,1.06
302,Kilindoni,32,TZ,1551300936,100,-7.91,39.67,28.6,3.51
303,Port Macquarie,92,AU,1551300845,93,-31.43,152.91,19.44,2.1
304,Adrar,0,DZ,1551297600,40,27.87,-0.29,11.0,3.1
305,Oron,20,NG,1551300937,92,4.81,8.23,25.72,2.51
306,Aktanysh,88,RU,1551300937,93,55.72,54.06,-5.91,4.66
307,Hammerfest,75,NO,1551298800,85,70.66,23.68,-3.0,11.3
308,Fray Bentos,0,AR,1551300938,48,-33.12,-58.31,24.57,2.66
309,Santa Isabel do Rio Negro,48,BR,1551300888,54,-0.41,-65.02,32.8,2.21
310,Pacific Grove,20,US,1551300840,55,36.62,-121.92,18.33,6.2
311,Manavalakurichi,20,IN,1551299400,74,8.13,77.3,28.0,1.5
312,Nelson Bay,0,AU,1551300636,93,-32.72,152.14,20.56,2.1
313,Fare,8,PF,1551300940,99,-16.7,-151.02,28.6,4.91
314,Narsaq,75,GL,1551297000,33,60.91,-46.05,6.0,20.6
315,Bilma,0,NE,1551300904,42,18.69,12.92,15.57,3.51
316,Xining,56,CN,1551300871,83,36.62,101.77,-9.58,1.11
317,Klaksvik,0,FO,1551298800,86,62.23,-6.59,3.0,2.6
318,Saryozek,68,KZ,1551300941,65,44.36,77.98,-11.06,1.36
319,Waingapu,12,ID,1551300942,97,-9.65,120.26,23.27,1.01
320,Kieta,36,PG,1551300942,100,-6.22,155.63,25.85,1.96
321,Tarauaca,44,BR,1551300943,97,-8.16,-70.77,25.12,1.21
322,Birao,48,CF,1551300943,34,10.3,22.78,24.37,2.46
323,Vagur,0,FO,1551300943,98,61.47,-6.81,7.42,2.16
324,Iquitos,75,PE,1551299220,83,-3.75,-73.25,26.0,2.1
325,Egvekinot,80,RU,1551300884,90,66.32,-179.17,-4.98,2.96
326,Shar,80,NG,1551300944,74,7.3,8.73,26.37,2.01
327,Buraydah,75,SA,1551297600,55,26.33,43.97,16.0,3.1
328,Byron Bay,90,AU,1551300838,64,-28.65,153.62,23.0,3.6
329,Saint Anthony,90,US,1551300654,96,43.97,-111.68,2.22,3.6
330,Northam,0,GB,1551300937,93,51.04,-4.21,10.0,3.21
331,Gaya,76,IN,1551300945,81,24.8,85.01,15.6,1.06
332,Katsuura,90,JP,1551300139,87,33.93,134.5,8.0,5.1
333,Mishkino,40,RU,1551297600,85,56.22,46.62,-4.0,6.0
334,Moree,92,AU,1551300308,52,-29.46,149.84,20.0,3.1
335,Aromashevo,80,RU,1551300947,94,56.86,68.64,-9.96,1.86
336,Bhachau,0,IN,1551300947,40,23.3,70.35,12.42,2.51
337,Shalinskoye,88,RU,1551300947,80,55.72,93.76,-1.31,3.46
338,Sayyan,0,YE,1551300948,78,15.17,44.32,9.17,1.26
339,Ziro,88,IN,1551300948,99,27.54,93.82,6.1,0.61
340,Cabedelo,0,BR,1551297600,74,-6.97,-34.84,29.0,5.1
341,Marystown,88,CA,1551300722,100,47.17,-55.16,-4.44,8.49
342,Mabaruma,92,GY,1551300949,73,8.2,-59.78,27.35,4.16
343,Mut,92,TR,1551300949,83,36.64,33.44,0.1,2.01
344,Pandaria,0,IN,1551300949,55,22.22,81.41,18.1,3.76
345,Senador Jose Porfirio,100,BR,1551300950,100,-2.59,-51.95,23.52,1.16
346,Makakilo City,20,US,1551300791,67,21.35,-158.09,23.0,8.2
347,Ekhabi,0,RU,1551300950,82,53.51,142.97,-17.38,3.71
348,Naze,56,NG,1551300837,96,5.43,7.07,22.12,1.51
349,Gimli,0,CA,1551300605,73,50.63,-96.99,-11.67,4.02
350,Shakawe,48,BW,1551300764,51,-18.36,21.84,25.55,2.31
351,Namibe,24,AO,1551300859,100,-15.19,12.15,25.42,0.71
352,Baishishan,0,CN,1551300951,72,43.58,127.55,-13.66,1.01
353,Ngunguru,48,NZ,1551299884,87,-35.62,174.5,17.78,4.02
354,Kulhudhuffushi,44,MV,1551300893,100,6.62,73.07,27.37,1.76
355,Half Moon Bay,90,US,1551300719,77,37.46,-122.43,17.78,8.7
356,Sitka,32,US,1551300915,67,37.17,-99.65,-3.96,5.91
357,Severnyy-Kospashskiy,88,RU,1551300665,59,59.09,57.8,-10.57,0.45
358,Buala,0,SB,1551300953,82,-8.15,159.59,28.7,2.91
359,Bealanana,68,MG,1551300954,95,-14.54,48.75,19.95,0.21
360,Irbeyskoye,88,RU,1551300954,89,55.64,95.45,-1.66,4.61
361,Bundaberg,40,AU,1551300308,72,-24.87,152.35,22.78,3.6
362,Plover,75,US,1551300895,52,44.46,-89.54,-7.78,6.2
363,Raudeberg,75,NO,1551300903,86,61.99,5.14,5.0,4.6
364,Samarai,80,PG,1551300958,100,-10.62,150.67,27.3,5.16
365,Baghdad,90,IQ,1551297600,58,33.3,44.38,15.0,2.6
366,Mufumbwe,8,ZM,1551300959,60,-13.68,24.8,23.3,2.81
367,Tuatapere,92,NZ,1551300608,74,-46.13,167.69,11.11,4.02
368,Clarence Town,0,AU,1551300636,93,-32.59,151.78,20.56,2.1
369,Havre,1,US,1551297180,70,48.55,-109.68,-17.0,3.6
370,Touros,20,BR,1551297600,74,-5.2,-35.46,29.0,4.1
371,Douglas,20,US,1551300899,17,31.34,-109.55,21.67,1.5
372,Rumphi,0,MW,1551300961,93,-11.02,33.86,15.95,0.91
373,Torbay,90,CA,1551300818,73,47.66,-52.73,-3.33,15.9
374,Carmo do Paranaiba,36,BR,1551300962,98,-19.0,-46.32,21.52,0.86
375,Purranque,0,CL,1551297600,53,-40.91,-73.16,22.0,4.1
376,Anloga,20,GH,1551297600,79,5.79,0.9,29.0,2.1
377,Lodja,88,CD,1551300963,92,-3.52,23.6,22.72,1.61
378,Terrace,20,CA,1551300356,54,54.52,-128.61,5.0,6.2
379,Araouane,36,ML,1551300964,22,18.9,-3.53,17.42,5.76
380,Cidreira,76,BR,1551300964,82,-30.17,-50.22,21.2,4.46
381,Baruun-Urt,0,MN,1551300964,59,46.68,113.28,-13.33,0.41
382,La Paz,75,MX,1551300313,31,24.15,-110.32,26.67,5.7
383,Kerema,56,PG,1551300968,98,-7.96,145.78,23.37,1.16
384,Rome,0,IT,1551299884,46,41.89,12.48,13.33,3.1
385,Dwarka,20,IN,1551299400,81,28.58,77.04,12.0,1.21
386,Timbuktu,0,ML,1551300969,25,16.77,-3.01,17.85,5.71
387,Kloulklubed,8,PW,1551300956,100,7.04,134.26,26.32,4.56
388,Yulara,0,AU,1551297600,32,-25.24,130.99,21.0,2.6
389,Matara,92,PE,1551300970,86,-13.74,-72.9,9.92,1.11
390,Linares,0,CL,1551300970,30,-35.85,-71.6,26.7,1.46
391,Brae,0,GB,1551300600,87,60.4,-1.35,6.0,2.6
392,Jieshi,92,CN,1551300971,99,22.82,115.83,19.07,2.36
393,Queenstown,44,NZ,1551300764,85,-45.03,168.66,4.92,0.96
394,Chumikan,0,RU,1551300909,67,54.72,135.31,-12.38,3.76
395,Ust-Maya,56,RU,1551300972,78,60.42,134.54,-20.48,1.06
396,Alto Araguaia,68,BR,1551300972,93,-17.32,-53.22,22.52,3.66
397,Zastron,0,ZA,1551300972,55,-30.3,27.08,12.77,2.11
398,Salalah,0,OM,1551297000,69,17.01,54.1,25.0,1.0
399,Sulangan,64,PH,1551300973,100,11.14,123.72,25.87,6.91
400,Sao Filipe,0,CV,1551300973,81,14.9,-24.5,23.47,7.56
401,Esperance,20,TT,1551300608,58,10.24,-61.45,31.11,5.7
402,Aberdeen,1,US,1551300908,65,45.47,-98.49,-12.78,8.7
403,Kutulik,24,RU,1551300974,58,53.35,102.79,-13.96,1.31
404,Palauig,0,PH,1551300975,100,15.44,119.9,20.45,1.71
405,Slonim,12,BY,1551300975,80,53.09,25.32,3.22,7.11
406,Ambon,75,FR,1551300923,93,47.55,-2.56,11.67,4.6
407,Kiunga,92,PG,1551300976,98,-6.12,141.3,22.7,1.11
408,Christchurch,80,NZ,1551300951,57,-43.53,172.64,12.78,6.7
409,Aquiraz,40,BR,1551300502,78,-3.9,-38.39,27.22,3.1
410,Lower Burrell,75,US,1551300955,30,40.59,-79.73,13.33,7.7
411,Puerto Narino,75,CO,1551297600,100,-3.77,-70.38,25.0,3.1
412,Hofn,36,IS,1551300759,100,64.25,-15.21,2.92,3.91
413,Ayagoz,76,KZ,1551300978,80,47.96,80.43,-8.06,2.66
414,Taree,92,AU,1551300304,93,-31.91,152.46,16.11,2.1
415,Ahipara,12,NZ,1551300180,100,-35.17,173.16,17.78,7.41
416,Angoram,0,PG,1551300979,90,-4.06,144.07,24.77,1.16
417,Burley,90,US,1551300420,66,42.54,-113.79,10.0,7.7
418,Noumea,20,NC,1551299400,78,-22.28,166.46,23.0,4.1
419,Jaguaribe,44,BR,1551300980,81,-5.88,-38.62,26.27,3.21
420,Mandalgovi,0,MN,1551300866,68,45.76,106.27,-15.53,1.36
421,High Prairie,68,CA,1551300981,72,55.43,-116.48,-7.98,3.51
422,Ossora,44,RU,1551300981,81,59.24,163.07,-19.08,2.21
423,Opuwo,24,NA,1551300981,83,-18.06,13.84,18.07,0.31
424,Bubaque,12,GW,1551300902,79,11.28,-15.83,28.82,6.56
425,Padang,88,ID,1551300967,100,-0.92,100.36,24.42,2.56
426,Mayo,5,CA,1551297600,71,63.59,-135.9,-16.0,1.0
427,Saint-Leu,0,RE,1551300917,69,-21.15,55.28,27.0,2.6
428,Bezhetsk,88,RU,1551300983,87,57.78,36.69,-2.16,6.56
429,Road Town,40,VG,1551300914,58,18.42,-64.62,29.0,6.2
430,Mehran,20,IR,1551297600,93,33.12,46.17,3.0,1.0
431,Wajima,92,JP,1551300984,100,37.4,136.9,6.35,2.61
432,Mount Isa,0,AU,1551297600,88,-20.73,139.49,21.0,1.5
433,Irbit,24,RU,1551300985,60,57.67,63.06,-17.21,1.41
434,Hasaki,75,JP,1551300576,93,35.73,140.83,6.11,4.1
435,Marsa Matruh,8,EG,1551300950,65,31.35,27.25,12.32,6.26
436,Flinders,40,AU,1551300906,93,-34.58,150.85,22.22,1.5
437,Praia da Vitoria,40,PT,1551300429,88,38.73,-27.07,17.0,6.86
438,Turayf,40,SA,1551297600,87,31.68,38.65,8.0,5.1
439,Karpathos,48,GR,1551298800,53,35.51,27.21,11.0,12.9
440,Price,90,US,1551300874,55,39.6,-110.81,7.22,1.91
441,Farmington,1,US,1551300797,34,36.73,-108.21,13.89,2.1
442,Urusha,76,RU,1551300945,65,54.05,122.9,-13.73,1.31
443,Ous,48,RU,1551300995,80,60.91,61.52,-17.31,2.31
444,Mount Gambier,75,AU,1551299400,93,-37.83,140.78,16.0,2.6
445,Tiarei,20,PF,1551300789,66,-17.53,-149.33,30.0,2.6
446,Gushikawa,90,JP,1551299280,94,26.35,127.87,21.67,4.1
447,Srednekolymsk,76,RU,1551300965,73,67.46,153.71,-24.08,2.26
448,Harper,1,US,1551300918,41,30.3,-99.24,28.33,2.21
449,Sur,0,OM,1551300993,97,22.57,59.53,21.52,5.41
450,Sisimiut,0,GL,1551300997,60,66.94,-53.67,-19.73,1.66
451,Hangal,0,IN,1551300997,77,14.77,75.13,16.02,1.66
452,Kindia,12,GN,1551300998,59,10.05,-12.86,23.27,0.91
453,Skjervoy,0,NO,1551298800,63,70.03,20.97,-1.0,6.2
454,Muyezerskiy,88,RU,1551300999,94,63.93,31.65,0.27,2.41
455,Tutoia,75,BR,1551297600,69,-2.76,-42.27,27.0,3.1
456,Bontang,0,ID,1551300999,94,0.12,117.47,27.32,5.41
457,Otjimbingwe,0,NA,1551301000,49,-22.35,16.13,21.2,1.76
458,Vaitape,8,PF,1551301000,98,-16.52,-151.75,28.7,5.01
459,General Roca,0,AR,1551297600,24,-39.03,-67.58,27.0,1.5
460,Sao Jose do Egito,36,BR,1551301001,63,-7.48,-37.27,26.35,3.56
461,Anadyr,90,RU,1551300793,92,64.73,177.51,-3.0,10.0
462,Koshurnikovo,92,RU,1551301002,79,54.3,93.39,-3.83,2.06
463,Bahia Blanca,0,AR,1551301002,60,-38.72,-62.27,21.47,6.51
464,Honiara,48,SB,1551301002,95,-9.43,159.96,24.1,1.21
465,Zaterechnyy,92,RU,1551301003,97,44.8,45.21,1.47,2.56
466,Qasigiannguit,5,GL,1551297000,45,68.82,-51.19,-3.0,7.7
467,Warmbad,0,DE,1551300988,86,50.67,13.08,9.44,2.1
468,Alofi,75,NU,1551297600,94,-19.06,-169.92,26.0,6.2
469,Talcahuano,0,CL,1551297600,60,-36.72,-73.12,20.0,6.2
470,Leshukonskoye,88,RU,1551301004,78,64.9,45.76,-9.38,2.96
471,Samarkand,36,UZ,1551297600,36,39.65,66.98,8.0,5.1
472,Vanderhoof,0,CA,1551300967,54,54.02,-124.02,-2.28,2.46
473,Pacifica,90,US,1551300719,77,37.61,-122.49,16.67,8.7
474,Taldan,68,RU,1551301006,66,53.69,124.82,-15.23,1.16
475,Wenling,88,CN,1551300780,92,28.38,121.38,9.44,0.45
476,Yangjiang,92,CN,1551300410,82,21.85,111.96,19.44,2.86
477,Vostok,36,RU,1551301007,70,46.45,135.83,-13.53,1.11
478,Tilichiki,64,RU,1551301008,58,60.47,166.1,-21.83,1.16
479,Taltal,0,CL,1551301008,58,-25.41,-70.49,22.2,2.06
480,Quelimane,20,MZ,1551297600,83,-17.88,36.89,27.0,2.6
481,Gigmoto,64,PH,1551301008,100,13.78,124.39,23.97,4.36
482,Mahates,0,CO,1551297600,58,10.23,-75.19,31.0,8.2
483,Kununurra,36,AU,1551297600,94,-15.77,128.74,25.0,0.5
484,Nueva Guinea,80,NI,1551301010,49,11.69,-84.46,29.72,3.86
485,Tessalit,8,ML,1551301011,20,20.2,1.01,15.2,6.11
486,Ciudad Bolivar,12,VE,1551301011,33,8.12,-63.55,34.47,7.46
487,Adwa,44,ET,1551301011,42,14.16,38.9,16.55,1.36
488,Deputatskiy,48,RU,1551300865,43,69.3,139.9,-33.88,1.26
489,Guilin,90,CN,1551297600,93,25.28,110.29,8.0,2.0
490,Labuhan,92,ID,1551300979,94,-2.54,115.51,23.8,0.71
491,Acajutla,0,SV,1551300944,40,13.59,-89.83,29.44,0.45
492,Stavrovo,64,RU,1551301012,85,56.13,40.01,-8.06,5.41
493,Kavieng,88,PG,1551300879,100,-2.57,150.8,26.55,2.21
494,Sorland,75,NO,1551298800,69,67.67,12.69,2.0,10.3
495,Taitung,56,TW,1551301014,100,22.76,121.15,20.07,1.31
496,Craigieburn,0,AU,1551300990,36,-37.6,144.94,26.11,9.3
497,Batemans Bay,8,AU,1551300974,93,-35.71,150.18,16.67,0.45
498,Nancha,0,CN,1551301015,89,47.14,129.26,-9.68,1.66
499,Sillamae,36,EE,1551301015,85,59.4,27.75,0.07,5.36
500,Turkan,8,AF,1551301016,70,35.6,68.92,-21.06,0.71
501,San Cristobal,40,EC,1551300358,56,-0.39,-78.55,21.0,6.7
502,Gisborne,32,NZ,1551300611,94,-38.66,178.02,14.44,5.36
503,Denpasar,75,ID,1551297600,94,-8.65,115.22,27.0,2.1
504,Caravelas,80,BR,1551300776,100,-17.73,-39.27,28.57,7.31
505,Madaoua,0,NE,1551301018,38,14.07,5.96,22.82,2.46
506,Sao Gabriel da Cachoeira,0,BR,1551301018,73,-0.13,-67.09,29.1,1.26
507,Cruz Alta,0,AR,1551300986,44,-33.01,-61.81,25.56,2.68
508,Mayor Pablo Lagerenza,68,PY,1551301019,69,-19.93,-60.77,27.52,3.26
509,Channel-Port aux Basques,80,CA,1551301019,100,47.57,-59.14,-5.41,20.31
510,Cairns,40,AU,1551300617,78,-16.92,145.77,24.0,4.6
511,Krasnokamensk,0,RU,1551301020,64,50.1,118.04,-15.31,2.16
512,Maku,75,IR,1551297000,93,39.29,44.45,2.0,1.21
513,Linjiang,36,CN,1551300800,79,41.81,126.91,-5.88,2.01
514,San Quintin,0,PH,1551301021,79,17.54,120.52,15.92,1.56
515,Tooele,90,US,1551300927,65,40.53,-112.3,9.0,5.7
516,Belaya Gora,76,RU,1551301022,70,68.54,146.19,-26.83,1.96
517,Bull Savanna,8,JM,1551301022,54,17.89,-77.59,27.57,4.01
518,Pinheiro Machado,0,BR,1551301022,50,-31.58,-53.38,20.32,2.96
519,Burnie,36,AU,1551300982,81,-41.05,145.91,16.11,3.13
520,Victoria,75,BN,1551299400,94,5.28,115.24,24.0,3.11
521,Bosaso,0,SO,1551301024,100,11.28,49.18,24.32,1.16
522,Lingao,0,CN,1551300840,100,19.91,109.69,19.87,1.16
523,Hastings,8,NZ,1551300893,100,-39.64,176.84,16.05,9.31
524,Kaharlyk,0,UA,1551300982,74,49.87,30.82,1.67,3.0
525,Ugoofaaru,24,MV,1551301025,100,5.67,73.0,27.2,1.96
526,Evensk,56,RU,1551301025,100,61.92,159.24,-17.23,3.06
527,Puerto Colombia,0,CO,1551300339,58,10.99,-74.96,30.0,7.2
528,Inongo,92,CD,1551301026,100,-1.93,18.29,21.45,1.46
529,Mahibadhoo,64,MV,1551301026,100,3.78,72.97,27.7,1.41
530,Agirish,12,RU,1551301026,65,61.92,63.02,-20.38,2.81
531,Mwandiga,40,TZ,1551297600,88,-4.84,29.66,23.0,1.06
532,Cururupu,92,BR,1551300885,90,-1.82,-44.87,25.52,2.36
533,Chulman,56,RU,1551301027,69,56.84,124.9,-15.08,1.96
534,Ponta Delgada,75,PT,1551300853,100,37.73,-25.67,16.0,6.2
535,Coahuayana,0,MX,1551301028,25,18.62,-100.35,31.05,1.36
536,Phulji,20,PK,1551301028,60,26.88,67.68,11.72,2.51
537,Chapada dos Guimaraes,76,BR,1551301028,83,-15.46,-55.75,26.72,2.41
538,Maria Chiquita,40,PA,1551300898,52,9.44,-79.75,32.78,6.7
539,Garissa,0,KE,1551301029,46,-0.46,39.64,28.22,4.86
540,Tenenkou,0,ML,1551301029,30,14.46,-4.91,18.97,5.16
541,Lasa,40,CY,1551300337,62,34.92,32.53,14.0,9.8
542,Malvern,0,GB,1551300726,81,52.12,-2.33,10.56,1.5
543,Rio Novo,75,BR,1551300981,57,-21.48,-43.13,27.0,2.6
544,Bandarbeyla,0,SO,1551300850,100,9.49,50.81,24.37,0.96
545,Qaqortoq,75,GL,1551297000,33,60.72,-46.03,6.0,20.6
546,Bose,0,IT,1551300907,50,45.46,8.01,13.33,1.5
547,Rocha,0,UY,1551301031,52,-34.48,-54.34,20.95,3.41
548,Standerton,0,ZA,1551300394,68,-26.94,29.24,19.44,1.31
549,Vao,0,EE,1551300991,83,59.1,26.19,0.37,4.46
550,Glens Falls,90,US,1551301009,66,43.31,-73.64,-10.57,3.1
551,Batagay,12,RU,1551301032,0,67.65,134.64,-39.68,1.31
552,Ballitoville,90,ZA,1551301011,93,-29.54,31.21,19.0,2.6
553,Novobirilyussy,68,RU,1551301032,82,56.95,90.69,-4.93,3.76
554,Syumsi,88,RU,1551301033,92,57.11,51.61,-4.81,2.11
555,Olga,90,US,1551301029,52,34.11,-118.17,19.44,1.31
556,Ishigaki,64,JP,1551301033,100,24.34,124.16,22.87,3.56
557,Ciudad del Maiz,0,MX,1551301034,43,22.4,-99.6,28.22,2.41
558,Banda Aceh,64,ID,1551300902,100,5.56,95.32,23.8,1.21
559,Gravdal,75,NO,1551300964,100,59.79,5.78,5.56,5.7
560,Terrace Bay,75,CA,1551300180,66,48.78,-87.1,-11.0,2.1
561,Laguna,75,MX,1551296400,31,27.52,-110.01,25.0,5.1
562,Inuvik,5,CA,1551297600,72,68.36,-133.71,-10.0,4.1
563,Rio Gallegos,40,AR,1551297600,39,-51.62,-69.22,18.0,12.3
564,Maltahohe,0,NA,1551301037,32,-24.83,16.98,20.42,3.11
565,Ucluelet,90,CA,1551300626,38,48.94,-125.55,5.56,3.1
566,Griffith,24,AU,1551297600,47,-34.29,146.06,24.0,6.2
567,Palmer,0,AU,1551300938,73,-34.85,139.16,23.89,1.5
568,Haverfordwest,0,GB,1551300916,87,51.8,-4.97,8.89,2.1
569,Cockburn Town,0,TC,1551300771,97,21.46,-71.14,25.6,8.71
570,Aksu,90,KZ,1551299400,92,52.04,76.93,-5.0,3.0
571,Agadez,0,NE,1551301042,41,16.97,7.99,20.35,3.46
572,Majenang,8,ID,1551301042,92,-7.3,108.76,19.8,1.21
573,Hemel Hempstead,0,GB,1551301039,81,51.75,-0.47,11.11,2.1
574,Quesnel,0,CA,1551300032,62,52.98,-122.49,-6.67,1.34
575,Bonga,64,ET,1551301043,57,7.26,36.25,16.8,0.86
576,Aklavik,5,CA,1551297600,84,68.22,-135.01,-10.0,3.1
577,Tezu,92,IN,1551301043,97,27.93,96.16,7.92,0.81
578,Sorata,92,BO,1551301044,100,-15.77,-68.65,12.57,1.36
579,Port-Gentil,75,GA,1551297600,100,-0.72,8.78,25.0,2.6
580,Tuburan,20,PH,1551297600,83,10.73,123.82,22.0,1.5
581,Pare,0,ID,1551300872,89,-7.77,112.2,20.1,1.06
582,Hobyo,0,SO,1551300720,93,5.35,48.53,23.72,4.56
583,Mayya,64,RU,1551297600,74,61.74,130.28,-30.0,2.0
584,Kurten,90,US,1551300962,88,30.79,-96.26,22.78,2.86
585,Watertown,1,US,1551300792,65,44.9,-97.12,-12.0,5.7
